# Zones

- name: Downtown
  latitude: 51.048518
  longitude: -114.069141
  radius: 1200
  icon: mdi:city

- name: Airport
  latitude: 51.125630
  longitude: -114.016975
  radius: 1500
  icon: mdi:airport

- name: Peter Lougheed Hospital
  latitude: 51.078994
  longitude: -113.983788
  radius: 150
  icon: mdi:hospital-building

- name: Bridlewood Shopping Center
  latitude: 50.905805
  longitude: -114.112368
  radius: 150
  icon: mdi:cart-outline

- name: Shawnessey Shopping Center
  latitude: 50.903525
  longitude: -114.064685
  radius: 250
  icon: mdi:cart-outline

- name: Southcentre Mall
  latitude: 50.952962
  longitude: -114.065887
  radius: 250
  icon: mdi:cart-outline

- name: Chinook Center Mall
  latitude: 50.952962
  longitude: -114.065887
  radius: 250
  icon: mdi:cart-outline

- name: Stoddards
  latitude: !secret stoddard_longitude
  longitude: !secret stoddard_latitude
  radius: 50
  icon: mdi:account-multiple

- name: Moms
  latitude: !secret mom_longitude
  longitude: !secret mom_latitude
  radius: 50
  icon: mdi:human-female

- name: South Calgary Health Campus
  latitude: 50.881934
  longitude: -113.951658
  radius: 150
  icon: mdi:hospital-building

- name: Doctor
  latitude: 50.875994
  longitude: -114.025203
  radius: 50
  icon: mdi:medical-bag

- name: Banff
  latitude: 51.176926
  longitude: -115.571548
  radius: 1000
  icon: mdi:image-filter-hdr
